[{"STN":209, "LON":4.518, "LAT":52.465, "ALT":0.0, "NAME":"IJMOND"},
 {"STN":210, "LON":4.43, "LAT":52.171, "ALT":-0.2, "NAME":"VALKENBURG"},
 {"STN":215, "LON":4.437, "LAT":52.141, "ALT":-1.1, "NAME":"VOORSCHOTEN"},
 {"STN":225, "LON":4.555, "LAT":52.463, "ALT":4.4, "NAME":"IJMUIDEN"},
 {"STN":235, "LON":4.781, "LAT":52.928, "ALT":1.2, "NAME":"DEKOOY"},
 {"STN":240, "LON":4.79, "LAT":52.318, "ALT":-3.3, "NAME":"SCHIPHOL"},
 {"STN":242, "LON":4.921, "LAT":53.241, "ALT":10.8, "NAME":"VLIELAND"},
 {"STN":248, "LON":5.174, "LAT":52.634, "ALT":0.8, "NAME":"WIJDENES"},
 {"STN":249, "LON":4.979, "LAT":52.644, "ALT":-2.4, "NAME":"BERKHOUT"},
 {"STN":251, "LON":5.346, "LAT":53.392, "ALT":0.7, "NAME":"HOORN(TERSCHELLING)"},
 {"STN":257, "LON":4.603, "LAT":52.506, "ALT":8.5, "NAME":"WIJKAANZEE"},
 {"STN":258, "LON":5.401, "LAT":52.649, "ALT":7.3, "NAME":"HOUTRIBDIJK"},
 {"STN":260, "LON":5.18, "LAT":52.1, "ALT":1.9, "NAME":"DEBILT"},
 {"STN":265, "LON":5.274, "LAT":52.13, "ALT":13.9, "NAME":"SOESTERBERG"},
 {"STN":267, "LON":5.384, "LAT":52.898, "ALT":-1.3, "NAME":"STAVOREN"},
 {"STN":269, "LON":5.52, "LAT":52.458, "ALT":-3.7, "NAME":"LELYSTAD"},
 {"STN":270, "LON":5.752, "LAT":53.224, "ALT":1.2, "NAME":"LEEUWARDEN"},
 {"STN":273, "LON":5.888, "LAT":52.703, "ALT":-3.3, "NAME":"MARKNESSE"},
 {"STN":275, "LON":5.873, "LAT":52.056, "ALT":48.2, "NAME":"DEELEN"},
 {"STN":277, "LON":6.2, "LAT":53.413, "ALT":2.9, "NAME":"LAUWERSOOG"},
 {"STN":278, "LON":6.259, "LAT":52.435, "ALT":3.6, "NAME":"HEINO"},
 {"STN":279, "LON":6.574, "LAT":52.75, "ALT":15.8, "NAME":"HOOGEVEEN"},
 {"STN":280, "LON":6.585, "LAT":53.125, "ALT":5.2, "NAME":"EELDE"},
 {"STN":283, "LON":6.657, "LAT":52.069, "ALT":29.1, "NAME":"HUPSEL"},
 {"STN":285, "LON":6.399, "LAT":53.575, "ALT":0.0, "NAME":"HUIBERTGAT"},
 {"STN":286, "LON":7.15, "LAT":53.196, "ALT":-0.2, "NAME":"NIEUWBEERTA"},
 {"STN":290, "LON":6.891, "LAT":52.274, "ALT":34.8, "NAME":"TWENTHE"},
 {"STN":308, "LON":3.379, "LAT":51.381, "ALT":0.0, "NAME":"CADZAND"},
 {"STN":310, "LON":3.596, "LAT":51.442, "ALT":8.0, "NAME":"VLISSINGEN"},
 {"STN":311, "LON":3.672, "LAT":51.379, "ALT":0.0, "NAME":"HOOFDPLAAT"},
 {"STN":312, "LON":3.622, "LAT":51.768, "ALT":0.0, "NAME":"OOSTERSCHELDE"},
 {"STN":313, "LON":3.242, "LAT":51.505, "ALT":0.0, "NAME":"VLAKTEV.D.RAAN"},
 {"STN":315, "LON":3.998, "LAT":51.447, "ALT":0.0, "NAME":"HANSWEERT"},
 {"STN":316, "LON":3.694, "LAT":51.657, "ALT":0.0, "NAME":"SCHAAR"},
 {"STN":319, "LON":3.861, "LAT":51.226, "ALT":1.7, "NAME":"WESTDORPE"},
 {"STN":323, "LON":3.884, "LAT":51.527, "ALT":1.4, "NAME":"WILHELMINADORP"},
 {"STN":324, "LON":4.006, "LAT":51.596, "ALT":0.0, "NAME":"STAVENISSE"},
 {"STN":330, "LON":4.122, "LAT":51.992, "ALT":11.9, "NAME":"HOEKVANHOLLAND"},
 {"STN":331, "LON":4.193, "LAT":51.48, "ALT":0.0, "NAME":"THOLEN"},
 {"STN":340, "LON":4.342, "LAT":51.449, "ALT":19.2, "NAME":"WOENSDRECHT"},
 {"STN":343, "LON":4.313, "LAT":51.893, "ALT":3.5, "NAME":"R'DAM-GEULHAVEN"},
 {"STN":344, "LON":4.447, "LAT":51.962, "ALT":-4.3, "NAME":"ROTTERDAM"},
 {"STN":348, "LON":4.926, "LAT":51.97, "ALT":-0.7, "NAME":"CABAUW"},
 {"STN":350, "LON":4.936, "LAT":51.566, "ALT":14.9, "NAME":"GILZE-RIJEN"},
 {"STN":356, "LON":5.146, "LAT":51.859, "ALT":0.7, "NAME":"HERWIJNEN"},
 {"STN":370, "LON":5.377, "LAT":51.451, "ALT":22.6, "NAME":"EINDHOVEN"},
 {"STN":375, "LON":5.707, "LAT":51.659, "ALT":22.0, "NAME":"VOLKEL"},
 {"STN":377, "LON":5.763, "LAT":51.198, "ALT":30.0, "NAME":"ELL"},
 {"STN":380, "LON":5.762, "LAT":50.906, "ALT":114.3, "NAME":"MAASTRICHT"},
 {"STN":391, "LON":6.197, "LAT":51.498, "ALT":19.5, "NAME":"ARCEN"}]